[
  {
    "address": "新竹縣新豐鄉重興村萃豐路21號",
    "phone": "(03)559-1151",
    "district": "新豐鄉",
    "lat": 24.8999145,
    "lng": 120.9881191,
    "city": "新竹縣",
    "name": "新豐鄉衛生所"
  },
  {
    "address": "新竹縣竹東鎮中正路221號",
    "phone": "(03)594-3566",
    "district": "竹東鎮",
    "lat": 24.7360038,
    "lng": 121.0928911,
    "city": "新竹縣",
    "name": "竹東鎮衛生所"
  },
  {
    "address": "新竹縣五峰鄉大隘村6鄰99號",
    "phone": "(03)585-1005  或 (03)585-1277",
    "district": "五峰鄉",
    "lat": 24.63166289999999,
    "lng": 121.1192785,
    "city": "新竹縣",
    "name": "五峰鄉衛生所"
  },
  {
    "address": "新竹縣尖石鄉嘉樂村二鄰61號",
    "phone": "(03)584-1011",
    "district": "尖石鄉",
    "lat": 24.7057362,
    "lng": 121.2023634,
    "city": "新竹縣",
    "name": "尖石鄉衛生所"
  },
  {
    "address": "新竹縣橫山鄉大肚村新興街141巷10號",
    "phone": "(03)593-2004",
    "district": "橫山鄉",
    "lat": 24.7180015,
    "lng": 121.1399892,
    "city": "新竹縣",
    "name": "橫山鄉衛生所"
  },
  {
    "address": "新竹縣峨眉鄉峨眉村峨眉街2鄰5號",
    "phone": "(03)580-0014",
    "district": "峨眉鄉",
    "lat": 24.6884901,
    "lng": 121.021415,
    "city": "新竹縣",
    "name": "峨眉鄉衛生所"
  },
  {
    "address": "新竹縣北埔鄉北埔村北埔街90號",
    "phone": "(03)580-2304",
    "district": "北埔鄉",
    "lat": 24.7004444,
    "lng": 121.0552902,
    "city": "新竹縣",
    "name": "北埔鄉衛生所"
  },
  {
    "address": "新竹縣寶山鄉雙溪村雙園路二段273號",
    "phone": "(03)520-3054",
    "district": "寶山鄉",
    "lat": 24.7667858,
    "lng": 120.9948465,
    "city": "新竹縣",
    "name": "寶山鄉衛生所"
  },
  {
    "address": "新竹縣芎林鄉文山路532號",
    "phone": "(03)592-4787",
    "district": "芎林鄉",
    "lat": 24.777445,
    "lng": 121.077627,
    "city": "新竹縣",
    "name": "芎林鄉衛生所"
  },
  {
    "address": "新竹縣關西鎮中山路207號",
    "phone": "(03)587-2335",
    "district": "關西鎮",
    "lat": 24.7917351,
    "lng": 121.172634,
    "city": "新竹縣",
    "name": "關西鎮衛生所"
  },
  {
    "address": "新竹縣新埔鎮中正路758號",
    "phone": "(03)588-2017",
    "district": "新埔鎮",
    "lat": 24.8279331,
    "lng": 121.07167,
    "city": "新竹縣",
    "name": "新埔鎮衛生所"
  },
  {
    "address": "新竹縣湖口鄉中興街36號",
    "phone": "(03)599-1654",
    "district": "湖口鄉",
    "lat": 24.9009379,
    "lng": 121.048145,
    "city": "新竹縣",
    "name": "湖口鄉衛生所"
  },
  {
    "address": "新竹縣竹東鎮仁愛路196號",
    "phone": "(03)596-2998",
    "district": "竹東鎮",
    "lat": 24.734258,
    "lng": 121.090935,
    "city": "新竹縣",
    "name": "竹信醫院"
  },
  {
    "address": "新竹縣竹東鎮中豐路一段81號",
    "phone": "(03)596-2134 轉 236\"03-5962134、 高齡友善預約專線(03) 595-3940、 (03) 595-3948 （下午13:00~16:00）",
    "district": "竹東鎮",
    "lat": 24.72259649999999,
    "lng": 121.1001722,
    "city": "新竹縣",
    "name": "臺北榮民總醫院新竹分院"
  },
  {
    "address": "新竹縣竹東鎮東林路76號",
    "phone": "(03)596-2316",
    "district": "竹東鎮",
    "lat": 24.7368726,
    "lng": 121.0912839,
    "city": "新竹縣",
    "name": "林醫院"
  },
  {
    "address": "新竹縣湖口鄉忠孝路29號",
    "phone": "(03)599-3500轉2133、2135、2153、2154",
    "district": "湖口鄉",
    "lat": 24.90051519999999,
    "lng": 121.0454746,
    "city": "新竹縣",
    "name": "天主教仁慈醫療財團法人仁慈醫院"
  },
  {
    "address": "新竹縣竹北市生醫路一段2號(竹北院區) ",
    "phone": "(03)667-7600  分機 531188 或 532821",
    "district": "竹北市",
    "lat": 24.8060562,
    "lng": 121.0436944,
    "city": "新竹縣",
    "name": "國立臺灣大學醫學院附設醫院新竹臺大分院生醫醫院竹北院區"
  },
  {
    "address": "新竹縣竹北市博愛街298巷5號",
    "phone": "(03)555-7188 分機177",
    "district": "竹北市",
    "lat": 24.8347547,
    "lng": 121.0081372,
    "city": "新竹縣",
    "name": "大安醫院"
  },
  {
    "address": "新竹縣竹北市興隆路一段199號",
    "phone": "(03)558-0558                (03)558-0111",
    "district": "竹北市",
    "lat": 24.8240945,
    "lng": 121.0020987,
    "city": "新竹縣",
    "name": "中國醫藥大學新竹附設醫院"
  },
  {
    "address": "新竹縣竹北市博愛街331號",
    "phone": "(03)555-2039",
    "district": "竹北市",
    "lat": 24.8355892,
    "lng": 121.0077876,
    "city": "新竹縣",
    "name": "新仁醫院"
  },
  {
    "address": "302新竹縣竹北市縣政二路69號",
    "phone": "(03)552-7000",
    "district": "竹北市",
    "lat": 24.8238051,
    "lng": 121.0139579,
    "city": "新竹縣",
    "name": "東元醫療社團法人東元綜合醫院"
  },
  {
    "address": "新竹縣竹東鎮至善路52號",
    "phone": "(03)594-3248",
    "district": "竹東鎮",
    "lat": 24.7187511,
    "lng": 121.0936465,
    "city": "新竹縣",
    "name": "國立臺灣大學醫學院附設醫院竹東分院"
  },
  {
    "address": "新竹縣竹東鎮長春路二段123號",
    "phone": "(03)594-7345",
    "district": "竹東鎮",
    "lat": 24.7396373,
    "lng": 121.0867519,
    "city": "新竹縣",
    "name": "德安聯合診所"
  },
  {
    "address": "新竹縣竹東鎮東峰路52號1樓",
    "phone": "(03)594-8399",
    "district": "竹東鎮",
    "lat": 24.7208963,
    "lng": 121.0962891,
    "city": "新竹縣",
    "name": "張景隆小兒科診所"
  },
  {
    "address": "新竹縣竹東鎮長春路三段170號",
    "phone": "(03)594-2010",
    "district": "竹東鎮",
    "lat": 24.7435826,
    "lng": 121.0837368,
    "city": "新竹縣",
    "name": "陽明小兒科耳鼻喉科聯合診所"
  },
  {
    "address": "新竹縣竹東鎮北興路二段99號",
    "phone": "(03)511-1352",
    "district": "竹東鎮",
    "lat": 24.7396155,
    "lng": 121.0924706,
    "city": "新竹縣",
    "name": "張國珍小兒科診所"
  },
  {
    "address": "新竹縣竹東鎮長春路三段188號1樓",
    "phone": "(03)595-9878",
    "district": "竹東鎮",
    "lat": 24.7440187,
    "lng": 121.0833634,
    "city": "新竹縣",
    "name": "崇光小兒專科診所"
  },
  {
    "address": "新竹縣竹北市光明一路392-1號1樓",
    "phone": "03-5586859",
    "district": "竹北市",
    "lat": 24.830991,
    "lng": 121.0124115,
    "city": "新竹縣",
    "name": "謝連中診所"
  },
  {
    "address": "新竹縣竹北市科大一路30號",
    "phone": "03-6570590",
    "district": "竹北市",
    "lat": 24.8220249,
    "lng": 121.0080294,
    "city": "新竹縣",
    "name": "哈哈親子小兒科診所"
  },
  {
    "address": "新竹縣竹北市莊敬三路39號1樓",
    "phone": "03-6586586",
    "district": "竹北市",
    "lat": 24.822532,
    "lng": 121.0248749,
    "city": "新竹縣",
    "name": "啄木鳥耳鼻喉科診所"
  },
  {
    "address": "新竹縣竹北市仁和街七號一樓",
    "phone": "03-5512882轉105          ",
    "district": "竹北市",
    "lat": 24.8118128,
    "lng": 121.0345476,
    "city": "新竹縣",
    "name": "竹佑親子診所"
  },
  {
    "address": "新竹縣竹北市光明九路9-15號",
    "phone": "03-6571515",
    "district": "竹北市",
    "lat": 24.8234095,
    "lng": 121.0130005,
    "city": "新竹縣",
    "name": "惠慎診所"
  },
  {
    "address": "新竹縣竹北市光明六路303-2號",
    "phone": "03-5535135",
    "district": "竹北市",
    "lat": 24.8298959,
    "lng": 121.004747,
    "city": "新竹縣",
    "name": "陳壽祥小兒科診所"
  },
  {
    "address": "新竹縣竹北市博愛街 376 號",
    "phone": "03-5510032",
    "district": "竹北市",
    "lat": 24.8362877,
    "lng": 121.0086199,
    "city": "新竹縣",
    "name": "彭福麒小兒科診所"
  },
  {
    "address": "新竹縣竹北市嘉豐南路一段30號1樓",
    "phone": "03-6580359",
    "district": "竹北市",
    "lat": 24.8118128,
    "lng": 121.0345476,
    "city": "新竹縣",
    "name": "立安親子診所"
  },
  {
    "address": "新竹縣竹北市光明一路392-1號1樓",
    "phone": "03-5586859",
    "district": "竹北市",
    "lat": 24.83229559999999,
    "lng": 121.0088014,
    "city": "新竹縣",
    "name": "張嘉榮診所"
  },
  {
    "address": "新竹縣新豐鄉建興路一段154-10號",
    "phone": "(03)559-3399",
    "district": "新豐鄉",
    "lat": 24.8748148,
    "lng": 120.9944826,
    "city": "新竹縣",
    "name": "羅世績診所"
  },
  {
    "address": "新竹縣新豐鄉建興路二段753號",
    "phone": "(03)557-6671",
    "district": "新豐鄉",
    "lat": 24.8996709,
    "lng": 120.9869249,
    "city": "新竹縣",
    "name": "正翔診所"
  },
  {
    "address": "新竹縣新豐鄉新市路3號",
    "phone": "(03)557-6387",
    "district": "新豐鄉",
    "lat": 24.8990156,
    "lng": 120.9868449,
    "city": "新竹縣",
    "name": "瀚華診所"
  },
  {
    "address": "新竹縣新豐鄉新興路75號1樓",
    "phone": "(03)557-2775",
    "district": "新豐鄉",
    "lat": 24.8663688,
    "lng": 120.9925673,
    "city": "新竹縣",
    "name": "永杏小兒科診所"
  },
  {
    "address": "新竹縣新豐鄉新興路245號",
    "phone": "(03)557-5302",
    "district": "新豐鄉",
    "lat": 24.870371,
    "lng": 120.996706,
    "city": "新竹縣",
    "name": "吳家仁小兒科診所"
  },
  {
    "address": "新竹縣竹北市嘉豐六路一段31號",
    "phone": "(03)668-1531",
    "district": "竹北市",
    "lat": 24.8135296,
    "lng": 121.032009,
    "city": "新竹縣",
    "name": "柏安耳鼻喉科診所"
  },
  {
    "address": "新竹縣竹北市勝利三街38號",
    "phone": "(03)658-9331",
    "district": "竹北市",
    "lat": 24.8232139,
    "lng": 121.0265021,
    "city": "新竹縣",
    "name": "翁佩魁小兒科專科診所"
  },
  {
    "address": "新竹縣湖口鄉安宅9街81號",
    "phone": "(03)597-7289",
    "district": "湖口鄉",
    "lat": 24.8668873,
    "lng": 121.0248703,
    "city": "新竹縣",
    "name": "育創診所"
  },
  {
    "address": "新竹縣竹北市福興東路二段140號",
    "phone": "(03)658-6699",
    "district": "竹北市",
    "lat": 24.81447219999999,
    "lng": 121.0284108,
    "city": "新竹縣",
    "name": "艾兒診所"
  },
  {
    "address": "新竹縣竹北市中正西路31號",
    "phone": "(03)555-3549",
    "district": "竹北市",
    "lat": 24.840078,
    "lng": 121.002083,
    "city": "新竹縣",
    "name": "曾文智診所"
  },
  {
    "address": "新竹縣竹北市博愛街172號",
    "phone": "(03)553-0106",
    "district": "竹北市",
    "lat": 24.832359,
    "lng": 121.0057409,
    "city": "新竹縣",
    "name": "傅仁良小兒科診所"
  },
  {
    "address": "新竹縣竹北市中山路460號",
    "phone": "(03)553-6286",
    "district": "竹北市",
    "lat": 24.8386449,
    "lng": 121.0112251,
    "city": "新竹縣",
    "name": "瑞麟診所"
  },
  {
    "address": "新竹縣竹北市文興路一段78號",
    "phone": "(03)658-3300",
    "district": "竹北市",
    "lat": 24.8119477,
    "lng": 121.0252086,
    "city": "新竹縣",
    "name": "游丞顯小兒科診所"
  },
  {
    "address": "新竹縣竹北市勝利五路27號",
    "phone": "(03)657-7261",
    "district": "竹北市",
    "lat": 24.8246571,
    "lng": 121.0250015,
    "city": "新竹縣",
    "name": "麥建方小兒專科診所"
  },
  {
    "address": "新竹縣竹北市成功八路100號",
    "phone": "(03)667-6287",
    "district": "竹北市",
    "lat": 24.8181352,
    "lng": 121.0168907,
    "city": "新竹縣",
    "name": "洪瑞聰小兒專科診所"
  }
]