[
  {
    "address": "新北市板橋區南雅南路二段21號",
    "phone": "02-77382525",
    "district": "板橋區",
    "lat": 24.9971306,
    "lng": 121.4529059,
    "city": "新北市",
    "name": "醫療財團法人徐元智先生醫藥基金會亞東紀念醫院"
  },
  {
    "address": "新北市淡水區民生里民生路45號",
    "phone": "02-28094661",
    "district": "中山區",
    "lat": 25.0588322,
    "lng": 121.5223675,
    "city": "新北市",
    "name": "台灣基督長老教會馬偕醫療財團法人淡水馬偕紀念醫院"
  },
  {
    "address": "新北市新莊區新樹路176號",
    "phone": "02-2996212分機1001",
    "district": "新莊區",
    "lat": 25.0214551,
    "lng": 121.4343264,
    "city": "新北市",
    "name": "新泰綜合醫院"
  },
  {
    "address": "新北市樹林區文化街9號",
    "phone": "02-26834567分機2902",
    "district": "樹林區",
    "lat": 24.987163,
    "lng": 121.420057,
    "city": "新北市",
    "name": "仁愛醫院"
  },
  {
    "address": "新北市板橋區南雅南路一段15之1號",
    "phone": "02-29685661",
    "district": "板橋區",
    "lat": 25.0068854,
    "lng": 121.4564325,
    "city": "新北市",
    "name": "蕭中正醫院"
  },
  {
    "address": "新北市新店區民權路89號",
    "phone": "02-29170201",
    "district": "新店區",
    "lat": 24.9827778,
    "lng": 121.5377778,
    "city": "新北市",
    "name": "同仁醫院"
  },
  {
    "address": "新北市新店區安德街26巷3號",
    "phone": "02-22122111分機1101",
    "district": "新店區",
    "lat": 24.9632775,
    "lng": 121.511364,
    "city": "新北市",
    "name": "豐榮醫院"
  },
  {
    "address": "新北市瑞芳區一坑路71之2號",
    "phone": "02-24974101分機102",
    "district": "瑞芳區",
    "lat": 25.10860139999999,
    "lng": 121.8021627,
    "city": "新北市",
    "name": "瑞芳礦工醫院"
  },
  {
    "address": "新北市土城區裕民路276號",
    "phone": "02-22617000",
    "district": "土城區",
    "lat": 24.982216,
    "lng": 121.454888,
    "city": "新北市",
    "name": "廣川醫院"
  },
  {
    "address": "新北市新莊區中正路794號",
    "phone": "02-82006600分機2179",
    "district": "龜山區",
    "lat": 25.0226316,
    "lng": 121.4083918,
    "city": "新北市",
    "name": "衛生福利部樂生療養院"
  },
  {
    "address": "新北市金山區五湖里玉爐路7號",
    "phone": "02-24989898分機9",
    "district": "金山區",
    "lat": 25.2195534,
    "lng": 121.628399,
    "city": "新北市",
    "name": "國立臺灣大學醫學院附設醫院金山分院"
  },
  {
    "address": "新北市永和區中興街80號",
    "phone": "02-29286060分機20116或10133",
    "district": "永和區",
    "lat": 25.0118232,
    "lng": 121.5179369,
    "city": "新北市",
    "name": "天主教耕莘醫療財團法人永和耕莘醫院"
  },
  {
    "address": "新北市泰山區貴子路69號",
    "phone": "02-85128800",
    "district": "新莊區",
    "lat": 25.0362418,
    "lng": 121.4323211,
    "city": "新北市",
    "name": "輔仁大學學校財團法人輔仁大學附設醫院"
  },
  {
    "address": "新北市三重區新北大道1段3號",
    "phone": "02-29829111分機3327",
    "district": "三重區",
    "lat": 25.0607382,
    "lng": 121.4905671,
    "city": "新北市",
    "name": "新北市立聯合醫院"
  },
  {
    "address": "新北市新莊區思源路127號",
    "phone": "02-29966795、02-22760441(電話預約)\n02-22765566分機2655(接種諮詢)",
    "district": "新莊區",
    "lat": 25.0429643,
    "lng": 121.4588889,
    "city": "新北市",
    "name": "衛生福利部臺北醫院"
  },
  {
    "address": "新北市新店區建國路289號",
    "phone": "02-66289800",
    "district": "新店區",
    "lat": 24.9860544,
    "lng": 121.5352341,
    "city": "新北市",
    "name": "佛教慈濟醫療財團法人台北慈濟醫院"
  },
  {
    "address": "新北市三峽區復興路399號",
    "phone": "02-26723456分機7129(電話預約)\n02-26723456分機7104(接種諮詢)",
    "district": "三峽區",
    "lat": 24.9383659,
    "lng": 121.3629978,
    "city": "新北市",
    "name": "行天宮醫療志業醫療財團法人恩主公醫院"
  },
  {
    "address": "新北市汐止區建成路59巷2號",
    "phone": "02-26482121分機7056",
    "district": "汐止區",
    "lat": 25.0726989,
    "lng": 121.6611849,
    "city": "新北市",
    "name": "國泰醫療財團法人汐止國泰綜合醫院"
  },
  {
    "address": "新北市新店區中正路362號",
    "phone": "02-22195028分機 2(電話預約)\n02-22193391分機66512(接種諮詢)",
    "district": "新店區",
    "lat": 24.9538514,
    "lng": 121.5038018,
    "city": "新北市",
    "name": "天主教耕莘醫療財團法人耕莘醫院"
  },
  {
    "address": "新北市八里區舊城路16號",
    "phone": "02-26102137",
    "district": "八里區",
    "lat": 25.1470689,
    "lng": 121.4000292,
    "city": "新北市",
    "name": "八里區衛生所"
  },
  {
    "address": "新北市三芝區中山路一段12號",
    "phone": "02-26362007",
    "district": "三芝區",
    "lat": 25.2583411,
    "lng": 121.5005945,
    "city": "新北市",
    "name": "三芝區衛生所"
  },
  {
    "address": "新北市三重區新北大道1段1號",
    "phone": "02-29825233",
    "district": "三重區",
    "lat": 25.0611225,
    "lng": 121.491513,
    "city": "新北市",
    "name": "三重區衛生所"
  },
  {
    "address": "新北市三峽區光明路71號3樓",
    "phone": "02-26711592",
    "district": "三峽區",
    "lat": 24.9284222,
    "lng": 121.3761849,
    "city": "新北市",
    "name": "三峽區衛生所"
  },
  {
    "address": "新北市土城區和平路26號",
    "phone": "02-22603181",
    "district": "土城區",
    "lat": 24.9728567,
    "lng": 121.4431739,
    "city": "新北市",
    "name": "土城區衛生所"
  },
  {
    "address": "新北市中和區南山路4巷3號",
    "phone": "02-22491936",
    "district": "中和區",
    "lat": 24.9986328,
    "lng": 121.5016776,
    "city": "新北市",
    "name": "中和區衛生所"
  },
  {
    "address": "新北市五股區新城三路11號",
    "phone": "02-22917717",
    "district": "五股區",
    "lat": 25.0940597,
    "lng": 121.44775,
    "city": "新北市",
    "name": "五股區衛生所"
  },
  {
    "address": "新北市平溪區公園街17號",
    "phone": "02-24951015",
    "district": "平溪區",
    "lat": 25.0246709,
    "lng": 121.7371846,
    "city": "新北市",
    "name": "平溪區衛生所"
  },
  {
    "address": "新北市永和區秀朗路一段137號1樓",
    "phone": "02-32332780",
    "district": "永和區",
    "lat": 25.004954,
    "lng": 121.5162805,
    "city": "新北市",
    "name": "永和區衛生所"
  },
  {
    "address": "新北市石門區石門里中山路28之1號",
    "phone": "02-26381007",
    "district": "石門區",
    "lat": 25.2900928,
    "lng": 121.5658787,
    "city": "新北市",
    "name": "石門區衛生所"
  },
  {
    "address": "新北市石碇區碇坪路一段82號",
    "phone": "02-26631325",
    "district": "石碇區",
    "lat": 24.991463,
    "lng": 121.658112,
    "city": "新北市",
    "name": "石碇區衛生所"
  },
  {
    "address": "新北市汐止區新台五路一段266號",
    "phone": "02-26412030",
    "district": "汐止區",
    "lat": 25.0635051,
    "lng": 121.6585798,
    "city": "新北市",
    "name": "汐止區衛生所"
  },
  {
    "address": "新北市坪林區坪林街104號",
    "phone": "02-26656272",
    "district": "坪林區",
    "lat": 24.93585789999999,
    "lng": 121.7115659,
    "city": "新北市",
    "name": "坪林區衛生所"
  },
  {
    "address": "新北市板橋區英士路192號",
    "phone": "02-22586606",
    "district": "板橋區",
    "lat": 25.02325189999999,
    "lng": 121.458209,
    "city": "新北市",
    "name": "板橋區衛生所"
  },
  {
    "address": "新北市林口區忠孝二路55號1樓",
    "phone": "02-26068760",
    "district": "林口區",
    "lat": 25.0696537,
    "lng": 121.3641707,
    "city": "新北市",
    "name": "林口區衛生所"
  },
  {
    "address": "新北市金山區中山路257號",
    "phone": "02-24984807",
    "district": "金山區",
    "lat": 25.2221261,
    "lng": 121.6368267,
    "city": "新北市",
    "name": "金山區衛生所"
  },
  {
    "address": "新北市泰山區全興路212號3樓",
    "phone": "02-29099921",
    "district": "泰山區",
    "lat": 25.0563997,
    "lng": 121.4335302,
    "city": "新北市",
    "name": "泰山區衛生所"
  },
  {
    "address": "新北市烏來區新烏路五段109號",
    "phone": "02-26617200",
    "district": "烏來區",
    "lat": 24.871935,
    "lng": 121.5479943,
    "city": "新北市",
    "name": "烏來區衛生所"
  },
  {
    "address": "新北市貢寮區仁愛路128號",
    "phone": "02-24901431",
    "district": "貢寮區",
    "lat": 25.055021,
    "lng": 121.9275033,
    "city": "新北市",
    "name": "貢寮區衛生所"
  },
  {
    "address": "新北市淡水區中山路158號",
    "phone": "02-26215620",
    "district": "淡水區",
    "lat": 25.1727279,
    "lng": 121.440901,
    "city": "新北市",
    "name": "淡水區衛生所"
  },
  {
    "address": "新北市深坑區深坑街165號",
    "phone": "02-26621567",
    "district": "深坑區",
    "lat": 25.0009135,
    "lng": 121.6125718,
    "city": "新北市",
    "name": "深坑區衛生所"
  },
  {
    "address": "新北市新店區北新路一段88號",
    "phone": "02-29113984",
    "district": "新店區",
    "lat": 24.967263,
    "lng": 121.542988,
    "city": "新北市",
    "name": "新店區衛生所"
  },
  {
    "address": "新北市新莊區中華路一段2號",
    "phone": "02-29967123",
    "district": "新莊區",
    "lat": 25.0363006,
    "lng": 121.4523922,
    "city": "新北市",
    "name": "新莊區衛生所"
  },
  {
    "address": "新北市瑞芳區明燈路三段1號",
    "phone": "02-24972132",
    "district": "瑞芳區",
    "lat": 25.1073086,
    "lng": 121.8089546,
    "city": "新北市",
    "name": "瑞芳區衛生所"
  },
  {
    "address": "新北市萬里區瑪鋉路157號",
    "phone": "02-24921117",
    "district": "萬里區",
    "lat": 25.1783642,
    "lng": 121.6899004,
    "city": "新北市",
    "name": "萬里區衛生所"
  },
  {
    "address": "新北市樹林區樹新路40-7號1樓",
    "phone": "02-26812134",
    "district": "樹林區",
    "lat": 24.9963198,
    "lng": 121.428854,
    "city": "新北市",
    "name": "樹林區衛生所"
  },
  {
    "address": "新北市雙溪區新基南街18號",
    "phone": "02-24931210",
    "district": "雙溪區",
    "lat": 25.0380061,
    "lng": 121.8663007,
    "city": "新北市",
    "name": "雙溪區衛生所"
  },
  {
    "address": "新北市蘆洲區中央路58號",
    "phone": "02-22812011",
    "district": "蘆洲區",
    "lat": 25.0840352,
    "lng": 121.4732808,
    "city": "新北市",
    "name": "蘆洲區衛生所"
  },
  {
    "address": "新北市鶯歌區文化路389號",
    "phone": "02-26702304",
    "district": "鶯歌區",
    "lat": 24.950582,
    "lng": 121.352538,
    "city": "新北市",
    "name": "鶯歌區衛生所"
  },
  {
    "address": "新北市中和區中正路291號",
    "phone": "02-22490088",
    "district": "中和區",
    "lat": 24.9926232,
    "lng": 121.4935872,
    "city": "新北市",
    "name": "衛生福利部雙和醫院(委託臺北醫學大學興建經營)"
  },
  {
    "address": "瑞芳區中山路2號",
    "phone": "",
    "district": "瑞芳區",
    "lat": 25.1078144,
    "lng": 121.8047245,
    "city": "新北市",
    "name": "瑞芳國小"
  },
  {
    "address": "新北市板橋區大觀路二段265巷15號",
    "phone": "",
    "district": "板橋區",
    "lat": 24.9953694,
    "lng": 121.4434246,
    "city": "新北市",
    "name": "慈濟板橋園區"
  },
  {
    "address": "新北市土城區金城路2段6號",
    "phone": "02-22630588",
    "district": "土城區",
    "lat": 24.9761498,
    "lng": 121.4487246,
    "city": "新北市",
    "name": "新北市立土城醫院（委託長庚醫療財團法人興建經營）"
  },
  {
    "address": "板橋區僑中一街1號",
    "phone": "",
    "district": "板橋區",
    "lat": 25.0111472,
    "lng": 121.4487222,
    "city": "新北市",
    "name": "新北市立大觀國民中學體育館"
  },
  {
    "address": "板橋區文化路1段25號",
    "phone": "",
    "district": "板橋區",
    "lat": 25.0122663,
    "lng": 121.4584769,
    "city": "新北市",
    "name": "新北市立板橋高級中學體育館"
  },
  {
    "address": "新莊區中華路一段75號",
    "phone": "",
    "district": "新莊區",
    "lat": 25.0396395,
    "lng": 121.4477684,
    "city": "新北市",
    "name": "新莊綜合體育館"
  },
  {
    "address": "新莊區民安路261號",
    "phone": "",
    "district": "新莊區",
    "lat": 25.0223304,
    "lng": 121.4277092,
    "city": "新北市",
    "name": "民安國小體育館\n(能強館)"
  },
  {
    "address": "三重區新北大道一段2號",
    "phone": "",
    "district": "三重區",
    "lat": 25.0617771,
    "lng": 121.4914951,
    "city": "新北市",
    "name": "三重綜合體育館"
  },
  {
    "address": "三重區三信路166號",
    "phone": "",
    "district": "三重區",
    "lat": 25.087378,
    "lng": 121.4889516,
    "city": "新北市",
    "name": "碧華國中"
  },
  {
    "address": "新北市三重區大有里中正北路450號",
    "phone": "",
    "district": "三重區",
    "lat": 25.07129,
    "lng": 121.473801,
    "city": "新北市",
    "name": "慈濟三重靜思堂"
  },
  {
    "address": "中和區嘉新里民安街172號",
    "phone": "",
    "district": "中和區",
    "lat": 25.0000911,
    "lng": 121.4766662,
    "city": "新北市",
    "name": "前國防管理學院中正堂"
  },
  {
    "address": "中和區興南路二段3巷17號",
    "phone": "",
    "district": "中和區",
    "lat": 24.9855434,
    "lng": 121.5087918,
    "city": "新北市",
    "name": "中和國中"
  },
  {
    "address": "新北市中和區中山路三段41號",
    "phone": "",
    "district": "中和區",
    "lat": 25.0049784,
    "lng": 121.477201,
    "city": "新北市",
    "name": "慈濟雙和靜思堂"
  },
  {
    "address": "新店區北新路一段92號",
    "phone": "",
    "district": "新店區",
    "lat": 24.968774,
    "lng": 121.542137,
    "city": "新北市",
    "name": "馬公體育館籃球場"
  },
  {
    "address": "新店區安康路2段85巷17號",
    "phone": "",
    "district": "新店區",
    "lat": 24.95860859999999,
    "lng": 121.5098257,
    "city": "新北市",
    "name": "公崙市民活動中心"
  },
  {
    "address": "新北市新店區建國路279號",
    "phone": "",
    "district": "新店區",
    "lat": 24.9846924,
    "lng": 121.5361788,
    "city": "新北市",
    "name": "新店靜思堂"
  },
  {
    "address": "汐止區忠孝東路201號",
    "phone": "",
    "district": "汐止區",
    "lat": 25.0657829,
    "lng": 121.6608704,
    "city": "新北市",
    "name": "新北市立秀峰高級中學\n（體育館）"
  },
  {
    "address": "淡水區中山北路二段200號",
    "phone": "",
    "district": "淡水區",
    "lat": 25.1864581,
    "lng": 121.4446951,
    "city": "新北市",
    "name": "新市國小"
  },
  {
    "address": "土城區學府路一段241號",
    "phone": "",
    "district": "土城區",
    "lat": 24.9833162,
    "lng": 121.449987,
    "city": "新北市",
    "name": "新北高工志清堂"
  },
  {
    "address": "永和區永平路205號",
    "phone": "",
    "district": "永和區",
    "lat": 25.0100383,
    "lng": 121.5080058,
    "city": "新北市",
    "name": "永平高中大禮堂"
  },
  {
    "address": "蘆洲區中原里5鄰中正路265號",
    "phone": "",
    "district": "蘆洲區",
    "lat": 25.0865429,
    "lng": 121.4656546,
    "city": "新北市",
    "name": "蘆洲國中大禮堂"
  },
  {
    "address": "新北市蘆洲區長樂路125號",
    "phone": "",
    "district": "蘆洲區",
    "lat": 25.0877363,
    "lng": 121.461848,
    "city": "新北市",
    "name": "蘆洲慈濟靜思堂"
  },
  {
    "address": "樹林區千歲街59號",
    "phone": "",
    "district": "樹林區",
    "lat": 24.9975343,
    "lng": 121.4260832,
    "city": "新北市",
    "name": "樹林文林國小學生活動中心"
  },
  {
    "address": "三峽區國光街100號",
    "phone": "",
    "district": "三峽區",
    "lat": 24.9391245,
    "lng": 121.3732293,
    "city": "新北市",
    "name": "北大國小"
  },
  {
    "address": "林口區三民路101號",
    "phone": "",
    "district": "林口區",
    "lat": 25.0697467,
    "lng": 121.3590601,
    "city": "新北市",
    "name": "新林國民小學活動中心"
  },
  {
    "address": "泰山區辭修路7號",
    "phone": "",
    "district": "泰山區",
    "lat": 25.0568806,
    "lng": 121.4296982,
    "city": "新北市",
    "name": "泰山高中體育館"
  },
  {
    "address": "鶯歌區尖山埔路108號",
    "phone": "",
    "district": "鶯歌區",
    "lat": 24.9504584,
    "lng": 121.3448534,
    "city": "新北市",
    "name": "鶯歌國中\n (大禮堂)"
  }
]