[
  {
    "address": "880台灣澎湖縣馬公市前寮里90號",
    "phone": "06-9211116",
    "district": "馬公市",
    "lat": 23.5547286,
    "lng": 119.5833382,
    "name": "三總澎湖分院",
    "city": "澎湖縣"
  },
  {
    "address": "880台灣澎湖縣馬公市中正路10號",
    "phone": "06-9261151",
    "district": "馬公市",
    "lat": 23.5643171,
    "lng": 119.5657616,
    "name": "衛生福利部澎湖醫院",
    "city": "澎湖縣"
  },
  {
    "address": "880台灣澎湖縣馬公市樹德路36號",
    "phone": "06-9273954/06-9273958",
    "district": "馬公市",
    "lat": 23.5689219,
    "lng": 119.5670427,
    "name": "馬公市第一衛生所",
    "city": "澎湖縣"
  },
  {
    "address": "880台灣澎湖縣馬公市鎖港里240號",
    "phone": "06-9951354/06-9951458",
    "district": "馬公市",
    "lat": 23.529335,
    "lng": 119.600866,
    "name": "馬公市第二衛生所",
    "city": "澎湖縣"
  },
  {
    "address": "880台灣澎湖縣馬公市118之2號",
    "phone": "06-9211723",
    "district": "馬公市",
    "lat": 23.5680862,
    "lng": 119.5836872,
    "name": "馬公市第三衛生所",
    "city": "澎湖縣"
  },
  {
    "address": "885台灣澎湖縣湖西鄉151之1號",
    "phone": "06-9922635",
    "district": "澎湖縣",
    "lat": 23.583895,
    "lng": 119.66134,
    "name": "湖西鄉衛生所",
    "city": "澎湖縣"
  },
  {
    "address": "884台灣澎湖縣白沙鄉359號",
    "phone": "06-9931044/06-9931545",
    "district": "白沙鄉",
    "lat": 23.6668034,
    "lng": 119.5982395,
    "name": "白沙鄉衛生所",
    "city": "澎湖縣"
  },
  {
    "address": "881台灣澎湖縣西嶼鄉88142澎湖縣西嶼鄉池東村222號",
    "phone": "06-9981115/06-9982450/06-9983616",
    "district": "西嶼鄉",
    "lat": 23.599305,
    "lng": 119.510219,
    "name": "西嶼鄉衛生所",
    "city": "澎湖縣"
  },
  {
    "address": "882台灣澎湖縣望安鄉西安村36-7號",
    "phone": "06-9991036",
    "district": "望安鄉",
    "lat": 23.3618947,
    "lng": 119.4974696,
    "name": "望安鄉衛生所",
    "city": "澎湖縣"
  },
  {
    "address": "883台灣澎湖縣七美鄉中和村10鄰54號",
    "phone": "06-9971791",
    "district": "七美鄉",
    "lat": 23.2041942,
    "lng": 119.4308398,
    "name": "七美鄉衛生所",
    "city": "澎湖縣"
  },
  {
    "address": "884台灣澎湖縣白沙鄉",
    "phone": "06-9911430",
    "district": "白沙鄉",
    "lat": 23.740119,
    "lng": 119.610071,
    "name": "吉貝衛生所",
    "city": "澎湖縣"
  },
  {
    "address": "884台灣澎湖縣白沙鄉白沙鄉鳥嶼村漁港新村2號",
    "phone": "06-9916234",
    "district": "白沙鄉",
    "lat": 23.660017,
    "lng": 119.660089,
    "name": "鳥嶼衛生所",
    "city": "澎湖縣"
  },
  {
    "address": "725台灣台南市將軍區忠興185-6號",
    "phone": "06-9902066",
    "district": "將軍區",
    "lat": 23.2013882,
    "lng": 120.1585495,
    "name": "將軍衛生所",
    "city": "澎湖縣"
  }
]