[
  {
    "city": "屏東市",
    "name": "屏東縣立體育館(屏東市)",
    "lng": "120.4937347",
    "lat": "22.6774918",
    "address": "900台灣屏東縣屏東市勝利路9號",
    "phone": "08 736 2589",
    "district": "屏東市"
  },
  {
    "city": "屏東市",
    "name": "萬丹國中活動中心(萬丹衛生所站)",
    "lng": "120.4884536",
    "lat": "22.596841",
    "address": "913台灣屏東縣萬丹鄉萬丹路一段501號",
    "phone": "08 777 2049",
    "district": "萬丹鄉"
  },
  {
    "city": "屏東市",
    "name": "潮州高中中興堂(潮州衛生所站)",
    "lng": "120.5452894",
    "lat": "22.5495485",
    "address": "920台灣屏東縣潮州鎮中山路11號",
    "phone": "08 788 2017",
    "district": "潮州鎮"
  },
  {
    "city": "屏東市",
    "name": "新園國中體育館(新園衛生所站)",
    "lng": "120.4613993",
    "lat": "22.5452661",
    "address": "932台灣屏東縣新園鄉仙吉村仙吉路111號",
    "phone": "08 868 1020",
    "district": "新園鄉"
  },
  {
    "city": "屏東市",
    "name": "東港靜思堂(東港衛生所站)",
    "lng": "120.4634753",
    "lat": "22.471462",
    "address": "928台灣屏東縣東港鎮",
    "phone": "08 832 5310",
    "district": "東港鎮"
  },
  {
    "city": "屏東市",
    "name": "大同高中(未開放)",
    "lng": "120.477654",
    "lat": "22.678426",
    "address": "10485台灣台北市中山區長春路167號",
    "phone": "02 2505 4269",
    "district": "中山區"
  },
  {
    "city": "屏東市",
    "name": "里港國小(里港衛生所)",
    "lng": "120.494283",
    "lat": "22.780715",
    "address": "905台灣屏東縣里港鄉",
    "phone": "08 775 1711",
    "district": "里港鄉"
  },
  {
    "city": "屏東市",
    "name": "佳冬國中(佳冬衛生所)",
    "lng": "120.5667866",
    "lat": "22.4288311",
    "address": "931台灣屏東縣佳冬鄉佳和路87-1號",
    "phone": "08 866 2018",
    "district": "佳冬鄉"
  },
  {
    "city": "屏東市",
    "name": "枋寮高中(枋寮、枋山衛生所)",
    "lng": "120.5903571",
    "lat": "22.3706155",
    "address": "940台灣屏東縣枋寮鄉",
    "phone": "08 878 2940",
    "district": "枋寮鄉"
  },
  {
    "city": "屏東市",
    "name": "恆春國中",
    "lng": "120.7478236",
    "lat": "22.0015703",
    "address": "946台灣屏東縣恆春鎮文化路79號",
    "phone": "08 889 2039",
    "district": "恆春鎮"
  },
  {
    "city": "屏東市",
    "name": "中正國中(未開放)",
    "lng": "120.5096318",
    "lat": "22.6730776",
    "address": "100台灣台北市中正區愛國東路158號",
    "phone": "02 2391 6697",
    "district": "中正區"
  },
  {
    "city": "屏東市",
    "name": "公正國中(未開放)",
    "lng": "120.4841386",
    "lat": "22.6407895",
    "address": "900台灣屏東縣屏東市公興路11號",
    "phone": "08 752 2097",
    "district": "屏東市"
  },
  {
    "city": "屏東市",
    "name": "屏北高中(未開放)",
    "lng": "120.543578",
    "lat": "22.759382",
    "address": "907台灣屏東縣鹽埔鄉莒光路168 號",
    "phone": "08 793 7493",
    "district": "鹽埔鄉"
  },
  {
    "city": "屏東市",
    "name": "恆春工商(未開放)",
    "lng": "120.746917",
    "lat": "21.992609",
    "address": "946台灣屏東縣恆春鎮恆南路38號恆春市",
    "phone": "08 889 2010",
    "district": "恆春鎮"
  },
  {
    "city": "屏東市",
    "name": "長興國小彩虹館(長治衛生所站)",
    "lng": "120.526139",
    "lat": "22.6770664",
    "address": "908台灣屏東縣長治鄉",
    "phone": "08 736 8734",
    "district": "長治鄉"
  },
  {
    "city": "屏東市",
    "name": "內埔國小體育館(內埔衛生所站)",
    "lng": "120.5656377",
    "lat": "22.610098",
    "address": "912台灣屏東縣內埔鄉中興路191號912",
    "phone": "08 779 2414",
    "district": "內埔鄉"
  },
  {
    "city": "屏東市",
    "name": "車城福安宮香客大樓(車城衛生所)",
    "lng": "120.710622",
    "lat": "22.0697853",
    "address": "944台灣屏東縣車城鄉福安路2之30號",
    "phone": "08 882 1300",
    "district": "車城鄉"
  },
  {
    "city": "屏東市",
    "name": "衛生福利部屏東醫院",
    "lng": "120.4955887",
    "lat": "22.6734734",
    "address": "900台灣屏東縣屏東市自由路270號",
    "phone": "08 736 3011",
    "district": "屏東市"
  },
  {
    "city": "屏東市",
    "name": "屏基醫療財團法人屏東基督教醫院",
    "lng": "120.502622",
    "lat": "22.682129",
    "address": "90053台灣屏東縣屏東市大連路60號",
    "phone": "08 736 8686",
    "district": "屏東市"
  },
  {
    "city": "屏東市",
    "name": "寶建醫療社團法人寶建醫院",
    "lng": "120.4843063",
    "lat": "22.6816044",
    "address": "900台灣屏東縣屏東市中山路123號",
    "phone": "08 766 5995",
    "district": "屏東市"
  },
  {
    "city": "屏東市",
    "name": "安泰醫療社團法人安泰醫院",
    "lng": "120.4591101",
    "lat": "22.4742761",
    "address": "928台灣屏東縣東港鎮中正路一段210號",
    "phone": "08 832 9966",
    "district": "東港鎮"
  },
  {
    "city": "屏東市",
    "name": "輔英科技大學附設醫院",
    "lng": "120.4529033",
    "lat": "22.4652753",
    "address": "928台灣屏東縣東港鎮中山路5號",
    "phone": "08 832 3146#1280",
    "district": "東港鎮"
  },
  {
    "city": "屏東市",
    "name": "枋寮醫療社團法人枋寮醫院急診室",
    "lng": "120.5965335",
    "lat": "22.3639491",
    "address": "940台灣屏東縣枋寮鄉中山路139號",
    "phone": "08 878 9556",
    "district": "枋寮鄉"
  },
  {
    "city": "屏東市",
    "name": "潮州安泰醫院",
    "lng": "120.5470684",
    "lat": "22.5539751",
    "address": "920台灣屏東縣潮州鎮四維路162號",
    "phone": "08 780 0888",
    "district": "潮州鎮"
  },
  {
    "city": "屏東市",
    "name": "恆基醫療財團法人恆春基督教醫院",
    "lng": "120.7410889",
    "lat": "22.0023556",
    "address": "946台灣屏東縣恆春鎮恆西路21號",
    "phone": "08 889 2293",
    "district": "恆春鎮"
  },
  {
    "city": "屏東市",
    "name": "國軍高雄總醫院屏東分院",
    "lng": "120.487487",
    "lat": "22.633664",
    "address": "900台灣屏東縣屏東市大湖路58巷22號",
    "phone": "08 756 0756",
    "district": "屏東市"
  },
  {
    "city": "屏東市",
    "name": "高雄榮民總醫院屏東分院",
    "lng": "120.5990661",
    "lat": "22.6744975",
    "address": "912台灣屏東縣內埔鄉昭勝路安平1巷1號",
    "phone": "08 770 4115",
    "district": "內埔鄉"
  },
  {
    "city": "屏東市",
    "name": "國仁醫院",
    "lng": "120.514549",
    "lat": "22.658315",
    "address": "900台灣屏東縣屏東市民生東路12-2號",
    "phone": "08 722 3000",
    "district": "屏東市"
  },
  {
    "city": "屏東市",
    "name": "衛生福利部恆春旅遊醫院",
    "lng": "120.7448248",
    "lat": "21.99913",
    "address": "946台灣屏東縣恆春鎮恆南路188號",
    "phone": "08 889 2704",
    "district": "恆春鎮"
  },
  {
    "city": "屏東市",
    "name": "南門醫院",
    "lng": "120.7453672",
    "lat": "22.0009266",
    "address": "300台灣新竹市東區林森路20號",
    "phone": "03 526 1122",
    "district": "東區"
  },
  {
    "city": "屏東市",
    "name": "大新醫院",
    "lng": "120.599612",
    "lat": "22.823793",
    "address": "906台灣屏東縣高樹鄉興中路208號",
    "phone": "08 796 0833",
    "district": "高樹鄉"
  },
  {
    "city": "屏東市",
    "name": "九如鄉衛生所",
    "lng": "120.4891334",
    "lat": "22.7360737",
    "address": "904台灣屏東縣九如鄉九如路二段247號",
    "phone": "08 739 2006",
    "district": "九如鄉"
  },
  {
    "city": "屏東市",
    "name": "麟洛鄉衛生所",
    "lng": "120.527481",
    "lat": "22.651012",
    "address": "909台灣屏東縣麟洛鄉中山路156-1號",
    "phone": "08 722 1152",
    "district": "麟洛鄉"
  },
  {
    "city": "屏東市",
    "name": "恆春鎮衛生所",
    "lng": "120.7468942",
    "lat": "22.0031454",
    "address": "946台灣屏東縣恆春鎮文化路78號",
    "phone": "08 889 2140",
    "district": "恆春鎮"
  },
  {
    "city": "屏東市",
    "name": "高樹鄉衛生所",
    "lng": "120.5942404",
    "lat": "22.8169764",
    "address": "906台灣屏東縣高樹鄉南昌路12之2號",
    "phone": "08 796 2026",
    "district": "高樹鄉"
  },
  {
    "city": "屏東市",
    "name": "鹽埔鄉衛生所",
    "lng": "120.578127",
    "lat": "22.760069",
    "address": "907台灣屏東縣鹽埔鄉勝利路187號",
    "phone": "08 793 2474",
    "district": "鹽埔鄉"
  },
  {
    "city": "屏東市",
    "name": "萬巒鄉衛生所",
    "lng": "120.5744669",
    "lat": "22.5717121",
    "address": "923台灣屏東縣萬巒鄉褒忠路14-2號",
    "phone": "08 781 1794",
    "district": "萬巒鄉"
  },
  {
    "city": "屏東市",
    "name": "竹田鄉衛生所",
    "lng": "120.5431223",
    "lat": "22.5863186",
    "address": "911台灣屏東縣竹田鄉中山路25號",
    "phone": "08 771 2434",
    "district": "竹田鄉"
  },
  {
    "city": "屏東市",
    "name": "新埤鄉衛生所",
    "lng": "120.5500341",
    "lat": "22.4702257",
    "address": "925台灣屏東縣新埤鄉中正路38號",
    "phone": "08 797 1090",
    "district": "新埤鄉"
  },
  {
    "city": "屏東市",
    "name": "恆春鎮衛生所",
    "lng": "120.7468942",
    "lat": "22.0031454",
    "address": "946台灣屏東縣恆春鎮文化路78號",
    "phone": "08 889 2140",
    "district": "恆春鎮"
  },
  {
    "city": "屏東市",
    "name": "崁頂鄉衛生所",
    "lng": "120.5072777",
    "lat": "22.514695",
    "address": "924台灣屏東縣崁頂鄉興農路29-9號924",
    "phone": "08 863 1454",
    "district": "崁頂鄉"
  },
  {
    "city": "屏東市",
    "name": "林邊鄉衛生所",
    "lng": "120.5094066",
    "lat": "22.4311188",
    "address": "927台灣屏東縣林邊鄉",
    "phone": "08 875 2076",
    "district": "林邊鄉"
  },
  {
    "city": "屏東市",
    "name": "南州鄉衛生所",
    "lng": "120.503041",
    "lat": "22.486193",
    "address": "926台灣屏東縣南州鄉",
    "phone": "08 864 2224",
    "district": "南州鄉"
  },
  {
    "city": "屏東市",
    "name": "琉球鄉衛生所",
    "lng": "120.378361",
    "lat": "22.348382",
    "address": "92941台灣屏東縣琉球鄉中山路51號",
    "phone": "08 861 2513",
    "district": "琉球鄉"
  },
  {
    "city": "屏東市",
    "name": "滿州鄉衛生所",
    "lng": "120.838033",
    "lat": "22.018626",
    "address": "947台灣屏東縣滿州鄉中山路31號947",
    "phone": "08 880 1279",
    "district": "滿州鄉"
  },
  {
    "city": "屏東市",
    "name": "枋山鄉衛生所",
    "lng": "120.6527144",
    "lat": "22.2647981",
    "address": "941台灣屏東縣枋山鄉",
    "phone": "08 876 1150",
    "district": "枋山鄉"
  },
  {
    "city": "屏東市",
    "name": "三地門鄉衛生所",
    "lng": "120.6534",
    "lat": "22.714605",
    "address": "901台灣屏東縣三地門鄉行政街4號",
    "phone": "08 799 1284",
    "district": "三地門鄉"
  },
  {
    "city": "屏東市",
    "name": "瑪家鄉衛生所",
    "lng": "120.6499025",
    "lat": "22.7088185",
    "address": "903台灣屏東縣瑪家鄉風景巷86號903",
    "phone": "08 799 1164",
    "district": "瑪家鄉"
  },
  {
    "city": "屏東市",
    "name": "霧台鄉衛生所",
    "lng": "120.7260629",
    "lat": "22.7498124",
    "address": "902台灣屏東縣霧台鄉神山巷68號",
    "phone": "08 790 2232",
    "district": "霧台鄉"
  },
  {
    "city": "屏東市",
    "name": "泰武鄉衛生所",
    "lng": "120.6327079",
    "lat": "22.592124",
    "address": "921台灣屏東縣泰武鄉921179號",
    "phone": "08 783 2059",
    "district": "泰武鄉"
  },
  {
    "city": "屏東市",
    "name": "春日鄉衛生所",
    "lng": "120.6252449",
    "lat": "22.370192",
    "address": "942台灣屏東縣春日鄉春日路176號942",
    "phone": "08 878 0358",
    "district": "春日鄉"
  },
  {
    "city": "屏東市",
    "name": "獅子鄉衛生所",
    "lng": "120.7046558",
    "lat": "22.2019349",
    "address": "943台灣屏東縣獅子鄉楓林二巷32號",
    "phone": "08 877 1324",
    "district": "獅子鄉"
  },
  {
    "city": "屏東市",
    "name": "牡丹鄉衛生所",
    "lng": "120.774176",
    "lat": "22.1254161",
    "address": "945台灣屏東縣牡丹鄉",
    "phone": "08 883 1013",
    "district": "牡丹鄉"
  },
  {
    "city": "屏東市",
    "name": "來義鄉衛生所",
    "lng": "120.6319977",
    "lat": "22.5258209",
    "address": "922台灣屏東縣來義鄉南和路153號",
    "phone": "08 879 1228",
    "district": "來義鄉"
  },
  {
    "city": "屏東市",
    "name": "優生婦產科醫院",
    "lng": "120.5038553",
    "lat": "22.6860494",
    "address": "900台灣屏東縣屏東市瑞光路三段103號",
    "phone": "08 738 2222",
    "district": "屏東市"
  },
  {
    "city": "屏東市",
    "name": "安和醫院",
    "lng": "120.4836256",
    "lat": "22.6834125",
    "address": "90064台灣屏東縣屏東市自由路598號",
    "phone": "08 765 1828",
    "district": "屏東市"
  },
  {
    "city": "屏東市",
    "name": "瑪家鄉三和社區集會所(7/2~7/3)",
    "lng": "120.6090775",
    "lat": "22.7029522"
  }
]